"Long","Lat","Stn_Name","Clim_ID","Prov_or_Ter","Tm","DwTm","D","Tx","DwTx","Tn","DwTn","S","DwS","S%N","P","DwP","P%N","S_G","Pd","BS","DwBS","BS%","HDD","CDD"
"-112.967","54.283","ABEE AGDM","3010010","AB","17.3","0","NA","28.7","0","7.2","0","","","NA","71.4","5","NA","","8","","","NA","37.4","16.5"
"-111.181","53.113","ALBERT HALL AGCM","3010060","AB","17.0","0","NA","31.0","0","7.9","0","","","NA","93.4","0","NA","","12","","","NA","44.9","14.4"
"-111.779","52.315","ALLIANCE AGCM","3010162","AB","17.0","0","NA","33.7","0","5.1","0","","","NA","91.3","0","NA","","10","","","NA","48.3","18.6"
"-112.279","53.917","ANDREW AGDM","3010237","AB","17.4","4","NA","28.5","4","9.0","4","","","NA","74.4","5","NA","","11","","","NA","33.9","18.4"
"-111.465","52.582","BELLSHILL AGCM","3010650","AB","17.0","9","NA","30.1","9","8.3","9","","","NA","95.2","8","NA","","10","","","NA","36.6","15.3"
"-110.101","52.124","BODO AGDM","3010730","AB","18.3","0","NA","32.7","0","8.5","0","","","NA","108.3","0","NA","","9","","","NA","26.9","36.0"
"-114.441","53.089","BRETON PLOTS","3010816","AB","15.5","0","NA","28.0","0","6.2","0","","","NA","161.2","1","NA","","17","","","NA","86.8","10.6"
"-113.922","53.931","BUSBY AGCM","3010979","AB","16.4","0","NA","29.0","0","6.4","0","","","NA","87.9","1","NA","","14","","","NA","61.6","12.0"
"-110.510","52.334","CADOGAN AGCM","3010992","AB","17.7","0","NA","31.3","0","8.7","0","","","NA","84.0","0","NA","","9","","","NA","32.0","22.7"
"-112.817","53.050","CAMROSE","3011240","AB","17.0","0","0.2","29.1","0","7.9","0","","","NA","94.1","0","110.0","","13","","","NA","46.1","14.9"
"-110.713","51.937","CONSORT AGDM","3011815","AB","17.1","0","NA","32.7","0","6.7","0","","","NA","68.3","0","NA","","8","","","NA","48.8","20.1"
"-111.449","52.074","CORONATION CLIMATE","3011887","AB","16.5","0","NA","33.3","0","5.8","0","","","NA","63.2","0","NA","","6","","","NA","58.4","13.3"
"-113.903","52.733","CRESTOMERE AGCM","3011892","AB","16.5","0","NA","29.5","0","5.8","0","","","NA","104.4","1","NA","","13","","","NA","63.1","16.7"
"-113.176","52.183","DELBURNE AGCM","3012050","AB","16.5","0","NA","28.8","0","8.0","0","","","NA","128.7","0","NA","","11","","","NA","62.4","15.4"
"-110.588","53.659","DEWBERRY AGCM","3012073","AB","17.6","0","NA","30.1","0","9.5","0","","","NA","77.3","0","NA","","12","","","NA","31.2","20.0"
"-110.433","52.778","EDGERTON AGCM","3012192","AB","17.6","0","NA","29.9","0","8.1","0","","","NA","150.5","0","NA","","10","","","NA","32.5","20.9"
"-113.606","53.307","EDMONTON INTERNATIONAL CS","3012206","AB","16.4","0","NA","29.7","0","5.9","0","","","NA","80.8","0","NA","","10","","","NA","61.2","12.6"
"-113.517","53.573","EDMONTON BLATCHFORD","3012209","AB","18.2","0","NA","29.7","0","9.0","0","","","NA","121.2","0","NA","","14","","","NA","26.6","32.2"
"-113.467","53.667","EDMONTON NAMAO AWOS A","3012212","AB","17.0","1","NA","29.8","1","6.4","1","","","NA","100.0","1","NA","","12","","","NA","48.2","18.9"
"-113.579","53.310","EDMONTON INTL A","3012216","AB","16.3","0","NA","29.3","0","5.8","0","0.0","0","NA","96.4","0","NA","","14","","","NA","65.1","12.2"
"-113.538","53.490","EDMONTON SOUTH CAMPUS","3012220","AB","18.5","6","NA","30.8","6","9.3","6","","","NA","82.1","7","NA","","8","","","NA","19.8","31.9"
"-113.856","53.668","EDMONTON VILLENEUVE A","3012229","AB","17.0","0","NA","29.0","0","6.4","0","","","NA","109.1","0","NA","","15","","","NA","45.7","15.7"
"-114.108","53.548","EDMONTON STONY PLAIN","301222F","AB","17.0","0","0.0","29.0","0","7.0","0","0.0","0","NA","102.6","0","100.0","0.0","13","","","NA","48.9","19.3"
"-112.868","53.683","ELK ISLAND NAT PARK","3012275","AB","17.0","0","0.0","28.5","0","8.1","0","","","NA","121.9","0","109.0","0.0","13","","","NA","48.9","19.0"
"-111.000","52.967","FABYAN","3012515","AB","16.5","0","-0.5","30.5","0","6.5","0","0.0","0","NA","114.4","0","158.0","0.0","11","","","NA","57.6","12.1"
"-112.858","52.744","FERINTOSH AGCM","3012590","AB","16.7","0","NA","29.3","0","7.3","0","","","NA","105.3","1","NA","","11","","","NA","52.4","12.5"
"-111.813","52.041","FLEET AGCM","3012635","AB","16.6","0","NA","33.1","0","6.7","0","","","NA","92.3","0","NA","","9","","","NA","59.0","14.3"
"-112.123","52.548","FORESTBURG AGCM","3012653","AB","16.8","0","NA","32.2","0","6.4","0","","","NA","96.4","0","NA","","9","","","NA","52.9","14.9"
"-113.183","53.717","FORT SASKATCHEWAN","3012710","AB","20.2","7","3.1","32.0","3","10.5","7","0.0","3","NA","93.2","3","NA","0.0","9","","","NA","4.3","57.6"
"-110.621","53.071","GILT EDGE NORTH AGCM","3012790","AB","17.4","0","NA","29.8","0","7.9","0","","","NA","133.8","0","NA","","11","","","NA","38.7","19.1"
"-114.320","53.295","ST. FRANCIS","3012799","AB","16.6","0","NA","27.7","0","7.6","0","","","NA","147.8","1","NA","","17","","","NA","61.0","16.9"
"-112.278","52.987","GLADSTONE AGCM","3012810","AB","16.7","0","NA","30.7","0","6.9","0","","","NA","103.6","0","NA","","10","","","NA","53.7","13.3"
"-114.539","53.833","GLENEVIS AGCM","3012818","AB","16.7","0","NA","28.8","0","7.2","0","","","NA","","","NA","","","","","NA","55.1","14.4"
"-110.803","52.113","GOOSEBERRY LAKE AGCM","3012871","AB","16.5","0","NA","32.2","0","5.8","0","","","NA","89.8","12","NA","","7","","","NA","60.8","15.1"
"-112.164","52.116","HALKIRK AGCM","3012999","AB","16.6","0","NA","31.7","0","6.9","0","","","NA","105.9","20","NA","","8","","","NA","61.4","16.5"
"-111.212","51.780","HEMARUKA AGCM","3013140","AB","17.0","0","NA","34.0","0","6.2","0","","","NA","57.9","4","NA","","7","","","NA","54.0","21.7"
"-112.246","53.185","HOLDEN AGDM","3013340","AB","17.0","0","NA","30.1","0","8.4","0","","","NA","98.6","1","NA","","11","","","NA","44.1","13.7"
"-110.784","52.578","HUGHENDEN AGCM","3013362","AB","17.3","0","NA","31.8","0","8.0","0","","","NA","129.6","0","NA","","11","","","NA","42.5","19.3"
"-111.872","52.848","KILLAM AGDM","3013640","AB","17.3","0","NA","30.1","0","7.7","0","","","NA","","","NA","","","","","NA","36.0","13.4"
"-111.113","52.290","KESSLER AGCM","3013644","AB","16.9","0","NA","31.7","0","6.1","0","","","NA","75.3","16","NA","","5","","","NA","49.6","16.9"
"-111.548","53.047","KINSELLA RESEARC STATION","3013647","AB","17.0","0","NA","31.0","0","6.0","0","","","NA","80.6","0","NA","","11","","","NA","46.1","15.1"
"-110.416","53.353","KITSCOTY AGCM","3013660","AB","17.4","0","NA","29.1","0","9.2","0","","","NA","129.0","0","NA","","10","","","NA","39.2","19.9"
"-113.474","54.003","LEGAL AGCM","3013790","AB","16.9","0","NA","28.5","0","7.9","0","","","NA","104.0","1","NA","","12","","","NA","47.9","15.2"
"-110.579","53.943","LINDBERGH AGDM","3013921","AB","16.9","0","NA","28.6","0","7.3","0","","","NA","62.4","0","NA","","12","","","NA","48.3","12.7"
"-110.073","53.309","LLOYDMINSTER","3013959","AB","17.4","0","NA","28.7","0","8.5","0","","","NA","16.1","0","NA","","1","","","NA","37.0","19.0"
"-110.073","53.309","LLOYDMINSTER A","3013961","AB","17.5","0","0.5","28.5","0","8.5","0","0.0","0","NA","128.2","0","170.0","0.0","13","","","NA","33.5","19.3"
"-111.255","53.456","MANNVILLE AGCM","3014195","AB","17.0","0","NA","30.1","0","7.7","0","","","NA","64.4","0","NA","","10","","","NA","49.7","17.3"
"-110.550","52.017","MONITOR","3014600","AB","","","NA","","","","","0.0","0","NA","62.9","0","96.0","0.0","7","","","NA","",""
"-112.300","53.567","MUNDARE AGDM","3014665","AB","17.4","0","NA","30.6","0","8.6","0","","","NA","78.4","1","NA","","9","","","NA","40.2","21.9"
"-111.114","53.720","MYRNAM AGCM","3014690","AB","16.5","23","NA","24.5","23","7.0","23","","","NA","44.5","23","NA","","4","","","NA","12.4","0.0"
"-113.165","53.262","NEW SAREPTA AGCM","3014795","AB","16.9","0","NA","30.2","0","8.7","0","","","NA","96.9","1","NA","","15","","","NA","51.2","17.4"
"-113.350","53.650","OLIVER AGDM","3014921","AB","17.3","0","NA","29.4","0","7.3","0","","","NA","","","NA","","","","","NA","40.8","18.6"
"-112.879","53.995","RADWAY AGCM","3015346","AB","17.2","0","NA","29.2","0","8.1","0","","","NA","","","NA","","","","","NA","40.7","15.2"
"-111.726","53.425","RANFURLY AUTO","3015401","AB","17.4","0","NA","30.3","0","8.5","0","","","NA","85.0","0","NA","","11","","","NA","35.7","18.3"
"-110.343","52.587","RIBSTONE SOUTH AGCM","3015480","AB","17.4","0","NA","29.7","0","6.9","0","","","NA","122.6","0","NA","","10","","","NA","32.2","14.9"
"-110.102","53.019","RIVERCOURSE AGCM","3015501","AB","17.1","0","NA","28.9","0","8.0","0","","","NA","127.6","2","NA","","10","","","NA","45.7","18.7"
"-114.912","52.421","ROCKY MTN HOUSE (AUT)","3015523","AB","14.8","0","NA","30.2","0","2.3","0","","","NA","107.1","0","NA","","13","","","NA","109.6","9.2"
"-112.422","52.792","ROSALIND AGCM","3015600","AB","16.8","0","NA","31.4","0","7.5","0","","","NA","87.5","0","NA","","11","","","NA","49.4","13.0"
"-111.453","54.282","ST. LINA AGCM","3015673","AB","16.6","0","NA","28.8","0","7.9","0","","","NA","63.3","6","NA","","12","","","NA","53.3","11.3"
"-111.272","54.011","ST. PAUL AGCM","3015676","AB","17.4","0","NA","29.6","0","8.6","0","","","NA","59.6","0","NA","","11","","","NA","37.1","19.5"
"-110.755","51.590","SEDALIA AGCM","3015797","AB","17.3","0","NA","35.1","0","6.8","0","","","NA","94.2","1","NA","","7","","","NA","45.1","22.9"
"-112.539","53.333","SHONTS AGCM","3015900","AB","16.8","0","NA","30.2","0","7.0","0","","","NA","141.8","1","NA","","9","","","NA","50.3","13.9"
"-112.499","54.278","SMOKY LAKE AGDM","3016022","AB","16.6","0","NA","29.0","0","8.3","0","","","NA","127.4","1","NA","","14","","","NA","57.1","13.6"
"-111.683","51.816","SPONDIN AGCM","3016070","AB","16.7","0","NA","33.5","0","5.5","0","","","NA","27.7","23","NA","","3","","","NA","56.8","16.4"
"-112.596","52.347","STETTLER AGDM","3016124","AB","16.7","0","NA","31.2","0","7.6","0","","","NA","110.2","0","NA","","13","","","NA","57.6","15.8"
"-113.895","53.217","THORSBY AGCM","3016441","AB","16.8","0","NA","28.8","0","7.4","0","","","NA","128.4","1","NA","","17","","","NA","53.3","15.0"
"-114.718","53.439","TOMAHAWK AGDM","3016505","AB","15.6","0","NA","29.6","0","5.5","0","","","NA","112.2","3","NA","","24","","","NA","84.1","10.5"
"-110.081","53.664","TULLIBY LAKE AGCM","3016593","AB","17.7","0","NA","29.5","0","9.1","0","","","NA","114.0","0","NA","","10","","","NA","31.9","22.6"
"-113.033","53.500","UNCAS","3016650","AB","","","NA","","","","","0.0","0","NA","113.0","0","NA","0.0","10","","","NA","",""
"-111.678","53.625","TWO HILLS AGDM","3016655","AB","17.0","0","NA","29.9","0","9.5","0","","","NA","77.5","1","NA","","13","","","NA","47.3","16.8"
"-110.882","53.344","VERMILION AGDM","3016802","AB","17.6","0","NA","30.4","0","8.3","0","","","NA","90.6","0","NA","","12","","","NA","30.8","18.0"
"-111.732","53.182","VIKING AGCM","3016841","AB","16.8","6","NA","30.8","6","8.8","6","","","NA","117.1","7","NA","","8","","","NA","43.3","13.4"
"-111.921","54.130","VILNA AGCM","3016852","AB","16.5","0","NA","30.1","0","7.4","0","","","NA","66.0","10","NA","","12","","","NA","57.5","10.4"
"-115.126","53.144","VIOLET GROVE CS","3016860","AB","16.0","1","NA","28.8","1","5.3","1","","","NA","159.8","1","NA","","13","","","NA","71.4","12.4"
"-112.098","53.505","VEGREVILLE","3016GF0","AB","17.3","0","0.6","29.5","0","8.0","0","","","NA","76.4","0","100.0","","12","","","NA","37.2","14.2"
"-113.444","52.980","WETASKIWIN AGCM","3017282","AB","15.5","14","NA","29.8","14","7.3","14","","","NA","87.7","14","NA","","10","","","NA","45.6","3.4"
"-111.224","51.491","YOUNGSTOWN AGCM","3017705","AB","17.6","0","NA","34.1","0","5.9","0","","","NA","65.7","0","NA","","9","","","NA","43.8","30.5"
"-114.108","53.547","EDMONTON STONY PLAIN CS","301A001","AB","16.7","0","NA","28.2","0","6.9","0","","","NA","108.2","0","NA","","12","","","NA","57.6","15.9"
"-110.206","51.670","ESTHER 1","301B460","AB","17.7","0","NA","34.7","0","6.8","0","","","NA","57.5","0","NA","","5","","","NA","34.2","26.2"
"-110.317","51.066","ACADIA VALLEY","3020035","AB","18.5","0","NA","36.3","0","5.6","0","","","NA","36.4","0","NA","","4","","","NA","27.6","43.8"
"-111.006","50.810","ATLEE AGCM","3020405","AB","18.5","0","NA","35.0","0","6.4","0","","","NA","31.0","0","NA","","8","","","NA","30.2","45.8"
"-113.357","51.379","BEISEKER AGCM","3020610","AB","15.9","0","NA","30.9","0","4.3","0","","","NA","80.0","1","NA","","8","","","NA","76.0","11.7"
"-112.803","51.998","BIG VALLEY AGCM","3020679","AB","16.6","0","NA","30.7","0","6.8","0","","","NA","155.1","1","NA","","13","","","NA","60.4","17.1"
"-110.686","50.798","BUFFALO AGCM","3020950","AB","18.7","0","NA","36.0","0","7.7","0","","","NA","31.3","0","NA","","8","","","NA","26.6","47.8"
"-111.221","51.024","CABIN LAKE AGCM","3021000","AB","18.3","0","NA","35.7","0","5.8","0","","","NA","","","NA","","","","","NA","32.3","41.4"
"-110.797","51.067","CAPPON","3021200","AB","17.7","0","NA","36.1","0","5.2","0","","","NA","35.3","0","NA","","5","","","NA","44.0","35.6"
"-110.824","51.276","CEREAL AGCM","3021463","AB","17.9","0","NA","35.8","0","6.5","0","","","NA","32.4","2","NA","","7","","","NA","37.8","34.2"
"-112.252","51.775","CRAIGMYLE AGCM","3021912","AB","17.0","0","NA","31.5","0","6.1","0","","","NA","85.6","0","NA","","10","","","NA","49.7","18.5"
"-112.677","51.445","DRUMHELLER EAST","30221LG","AB","18.5","0","NA","32.4","0","6.7","0","","","NA","110.2","0","NA","","12","","","NA","19.8","36.5"
"-112.097","51.053","FINNEGAN AGCM","3022650","AB","17.8","0","NA","34.5","0","3.8","0","","","NA","","","NA","","","","","NA","35.9","29.2"
"-112.135","51.453","HAND HILLS AGCM","3022990","AB","16.3","0","NA","31.4","0","5.9","0","","","NA","107.0","0","NA","","8","","","NA","67.8","15.9"
"-114.486","52.310","HESPERO AGCM","3023200","AB","15.5","0","NA","29.1","0","4.1","0","","","NA","119.9","0","NA","","11","","","NA","87.4","8.5"
"-112.500","51.183","HUSSAR AGDM","3023402","AB","16.1","0","NA","29.3","0","5.7","0","","","NA","96.1","0","NA","","7","","","NA","73.2","14.0"
"-110.359","51.913","KIRRIEMUIR AGCM","3023660","AB","17.2","0","NA","32.3","0","7.0","0","","","NA","69.2","8","NA","","8","","","NA","47.3","21.1"
"-113.756","52.449","LACOMBE CDA 2","3023722","AB","15.8","0","NA","29.1","0","5.4","0","","","NA","99.1","0","NA","","12","","","NA","79.8","10.6"
"-114.473","52.553","LEEDALE AGDM","3023740","AB","15.0","0","NA","28.9","0","2.8","0","","","NA","95.4","1","NA","","9","","","NA","100.9","6.5"
"-113.656","51.619","LINDEN AGCM","3023850","AB","15.9","6","NA","28.6","6","4.8","6","","","NA","66.3","6","NA","","10","","","NA","61.4","8.3"
"-110.341","49.458","LODGE CREEK","3023900","AB","16.9","0","NA","34.0","0","1.8","0","","","NA","36.4","0","NA","","4","","","NA","59.5","25.9"
"-112.675","51.660","MORRIN AGDM","3024668","AB","16.6","0","NA","30.2","0","5.2","0","","","NA","34.2","18","NA","","7","","","NA","62.7","18.8"
"-114.085","51.759","OLDS AGDM","3024925","AB","15.6","0","NA","28.9","0","5.3","0","","","NA","70.8","1","NA","","10","","","NA","85.8","10.8"
"-110.350","51.383","OYEN AGDM","3024965","AB","17.2","0","NA","34.3","0","5.5","0","","","NA","51.6","1","NA","","5","","","NA","48.3","24.4"
"-111.621","50.740","PATRICIA AGCM","3025013","AB","18.0","0","NA","33.8","0","6.8","0","","","NA","64.0","0","NA","","8","","","NA","30.6","31.4"
"-111.705","51.125","POLLOCKVILLE AGDM","3025243","AB","17.8","0","NA","33.6","0","4.0","0","","","NA","38.5","0","NA","","8","","","NA","34.5","28.8"
"-113.600","52.433","PRENTISS","3025297","AB","14.4","25","NA","22.1","25","8.2","25","","","NA","29.5","25","NA","","3","","","NA","21.5","0.0"
"-112.106","52.182","RED DEER OVERLAP","3025483","AB","","","NA","","","","","0.0","1","NA","79.1","1","NA","0.0","11","","","NA","",""
"-113.894","52.182","RED DEER REGIONAL A","3025484","AB","15.9","0","NA","29.5","0","5.4","0","","","NA","89.2","0","NA","","11","","","NA","77.4","12.0"
"-113.620","53.692","ST. ALBERT RESEARCH STATION","3025750","AB","17.1","0","NA","29.8","0","7.8","0","","","NA","96.8","1","NA","","15","","","NA","44.1","17.6"
"-110.091","50.307","SCHULER AGDM","3025768","AB","17.9","0","NA","34.6","0","5.8","0","","","NA","50.5","2","NA","","6","","","NA","39.3","35.9"
"-111.646","51.463","SHEERNESS AGCM","3025890","AB","17.7","6","NA","32.1","6","7.8","6","","","NA","50.2","6","NA","","4","","","NA","33.2","26.8"
"-111.388","51.301","SUNNYNOOK AGCM","3026264","AB","17.3","0","NA","35.2","0","4.5","0","","","NA","20.1","2","NA","","5","","","NA","50.7","27.9"
"-113.206","51.768","THREE HILLS","3026479","AB","16.0","0","NA","29.7","0","4.0","0","","","NA","78.6","0","NA","","12","","","NA","73.4","10.7"
"-111.955","50.895","VERGER","3026800","AB","17.9","0","NA","32.4","0","5.0","0","","","NA","38.5","3","NA","","6","","","NA","34.5","31.6"
"-114.683","51.778","SUNDRE A","3026KNQ","AB","14.8","1","NA","29.7","1","2.2","1","","","NA","131.2","1","NA","","16","","","NA","105.7","8.2"
"-113.591","51.936","WIMBORNE AGCM","3027582","AB","16.2","0","NA","29.6","0","5.5","0","","","NA","97.5","0","NA","","13","","","NA","69.1","12.9"
"-113.434","49.528","ARDENVILLE","3030200","AB","16.6","0","NA","31.4","0","4.9","0","","","NA","12.7","8","NA","","1","","","NA","64.2","22.3"
"-114.013","50.512","AZURE","3030450","AB","16.0","0","NA","32.4","0","4.6","0","","","NA","24.0","1","NA","","5","","","NA","79.2","16.0"
"-112.300","49.800","BARNWELL AGDM","3030525","AB","18.1","0","NA","33.1","0","5.2","0","","","NA","16.2","0","NA","","5","","","NA","32.7","36.3"
"-113.224","50.026","BARONS AGCM","3030529","AB","16.8","0","NA","33.7","0","3.4","0","","","NA","9.8","16","NA","","1","","","NA","59.1","20.7"
"-112.465","50.893","BASSANO AGCM","3030540","AB","17.2","0","NA","34.2","0","5.7","0","","","NA","30.7","0","NA","","10","","","NA","44.7","21.4"
"-114.152","50.707","BLACK DIAMOND","3030680","AB","14.9","0","NA","32.1","0","1.9","0","","","NA","35.7","1","NA","","6","","","NA","106.8","11.1"
"-113.640","50.546","BLACKIE AGCM","3030690","AB","15.8","3","NA","33.5","3","2.9","3","","","NA","33.2","9","NA","","4","","","NA","74.5","14.0"
"-113.050","49.567","BLOOD TRIBE AGDM","3030720","AB","16.6","0","NA","32.6","0","2.1","0","","","NA","20.5","3","NA","","5","","","NA","61.7","18.3"
"-111.450","49.734","BOW ISLAND","3030768","AB","18.4","0","NA","33.0","0","6.1","0","","","NA","10.7","0","NA","","4","","","NA","30.1","41.8"
"-111.366","49.868","BOW ISLAND IRRIGATION AGDM","3030772","AB","19.4","6","NA","33.7","6","7.0","6","","","NA","7.8","7","NA","","2","","","NA","14.6","49.2"
"-113.817","49.617","BROCKET AGDM","3030830","AB","16.0","0","NA","31.5","0","2.5","0","","","NA","20.3","0","NA","","3","","","NA","75.4","13.2"
"-110.484","50.339","BULL SPRINGS AGCM","3030879","AB","19.0","0","NA","35.4","0","6.7","0","","","NA","47.1","0","NA","","6","","","NA","23.0","53.3"
"-111.849","50.555","BROOKS","3030QLP","AB","18.2","0","NA","33.7","0","6.1","0","","","NA","20.4","0","NA","","5","","","NA","25.4","33.1"
"-114.013","51.123","CALGARY INTL A","3031092","AB","17.1","2","NA","29.4","2","6.8","2","0.0","0","NA","81.5","0","NA","","9","","","NA","46.6","20.1"
"-114.000","51.109","CALGARY INT'L CS","3031094","AB","16.5","1","NA","29.7","1","5.3","1","","","NA","62.4","1","NA","","7","","","NA","62.2","16.6"
"-114.371","51.105","CALGARY SPRINGBANK A","3031109","AB","15.2","2","NA","29.1","2","3.7","2","","","NA","32.8","2","NA","","6","","","NA","89.1","9.2"
"-113.286","49.201","CARDSTON","3031322","AB","17.3","0","NA","32.7","0","4.2","0","","","NA","11.1","0","NA","","3","","","NA","48.5","25.7"
"-113.376","49.001","CARWAY","3031402","AB","16.2","0","NA","30.6","0","3.2","0","","","NA","4.4","0","NA","","2","","","NA","77.9","20.9"
"-113.350","50.282","CHAMPION AGDM","3031480","AB","16.7","0","NA","33.9","0","3.2","0","","","NA","29.6","0","NA","","5","","","NA","63.6","21.8"
"-113.639","50.004","CLARESHOLM","3031640","AB","16.8","2","NA","33.5","2","3.6","2","","","NA","11.7","2","NA","0.0","4","","","NA","54.2","19.5"
"-112.433","50.183","ENCHANT AGDM","3032422","AB","18.2","0","NA","33.8","0","6.4","0","","","NA","23.2","0","NA","","5","","","NA","27.2","34.7"
"-111.054","49.553","ETZIKOM AGCM","3032450","AB","17.8","0","NA","35.0","0","2.9","0","","","NA","22.9","3","NA","","7","","","NA","43.6","37.4"
"-112.033","49.800","FINCASTLE AGDM","3032550","AB","18.4","0","NA","33.9","0","6.2","0","","","NA","26.7","0","NA","","6","","","NA","27.8","40.2"
"-111.486","49.483","FOREMOST AGDM","3032642","AB","17.7","0","NA","34.0","0","4.5","0","","","NA","10.9","6","NA","","4","","","NA","41.7","32.9"
"-113.379","49.786","FORT MACLEOD AGCM","3032683","AB","17.0","0","NA","33.8","0","3.7","0","","","NA","17.8","0","NA","","4","","","NA","53.9","23.4"
"-112.941","50.934","GLEICHEN AGCM","3032801","AB","17.0","3","NA","33.1","3","4.3","3","","","NA","49.2","3","NA","","7","","","NA","49.3","22.1"
"-111.733","49.874","GRASSY LAKE","3032927","AB","18.8","0","NA","34.7","0","6.1","0","","","NA","21.3","0","NA","","5","","","NA","22.2","47.1"
"-112.733","49.900","IRON SPRINGS AGDM","3033498","AB","17.6","0","NA","33.0","0","5.7","0","","","NA","14.3","6","NA","","3","","","NA","39.5","27.6"
"-114.292","50.869","PRIDDIS OBSERVATORY","3033505","AB","15.4","12","NA","30.1","12","5.6","12","","","NA","26.7","12","NA","","4","","","NA","58.6","10.1"
"-110.261","49.989","IRVINE AGCM","3033550","AB","19.5","0","NA","35.1","0","8.5","0","","","NA","46.9","0","NA","","6","","","NA","18.0","63.3"
"-113.631","51.191","KEOMA AGCM","3033620","AB","15.8","0","NA","29.9","0","5.2","0","","","NA","60.5","0","NA","","10","","","NA","79.2","11.4"
"-112.299","50.600","LATHOM AGCM","3033770","AB","17.7","0","NA","33.7","0","6.4","0","","","NA","31.0","19","NA","","5","","","NA","35.0","25.9"
"-112.799","49.630","LETHBRIDGE","3033875","AB","16.8","3","NA","32.5","3","3.7","3","","","NA","15.7","3","NA","","5","","","NA","50.4","17.7"
"-112.763","49.647","LETHBRIDGE AGTECH AGCM","3033877","AB","16.8","0","NA","31.7","0","3.3","0","","","NA","8.6","17","NA","","4","","","NA","57.7","19.0"
"-112.768","49.695","LETHBRIDGE CDA","3033890","AB","18.3","0","NA","33.3","0","6.3","0","","","NA","25.2","0","NA","","5","","","NA","30.4","39.8"
"-112.783","49.700","LETHBRIDGE CDA 2","3033892","AB","","","NA","","","","","0.0","7","NA","18.2","6","NA","","2","","","NA","",""
"-112.750","49.683","LETHBRIDGE DEMO FARM AGDM","3033897","AB","17.3","0","NA","31.7","0","5.1","0","","","NA","17.7","7","NA","","4","","","NA","45.0","23.6"
"-110.721","50.019","MEDICINE HAT","3034479","AB","19.5","0","NA","35.3","0","6.7","0","","","NA","6.0","21","NA","","1","","","NA","18.1","64.0"
"-110.717","50.025","MEDICINE HAT RCS","3034485","AB","19.7","0","NA","35.3","0","7.3","0","","","NA","43.3","0","NA","","6","","","NA","15.5","67.1"
"-113.349","50.673","MOSSLEIGH AGCM","3034577","AB","16.2","0","NA","33.0","0","3.9","0","","","NA","43.3","0","NA","","4","","","NA","72.6","15.5"
"-114.099","51.369","NIER AGDM","3034795","AB","14.7","0","NA","28.6","0","3.3","0","","","NA","96.3","0","NA","","10","","","NA","111.7","9.3"
"-113.997","49.521","PINCHER CREEK","3035198","AB","15.8","0","NA","31.8","0","2.9","0","","","NA","9.1","0","NA","","3","","","NA","86.0","16.4"
"-114.005","49.522","PINCHER CREEK CLIMATE","3035208","AB","15.8","0","NA","31.7","0","3.2","0","","","NA","9.1","0","NA","","3","","","NA","84.5","16.9"
"-112.983","50.606","QUEENSTOWN","3035340","AB","17.7","0","-0.1","33.0","0","7.5","0","0.0","0","NA","48.2","0","90.0","0.0","6","","","NA","38.2","30.0"
"-112.803","50.598","QUEENSTOWN","3035342","AB","17.5","5","NA","33.4","5","5.6","5","","","NA","37.8","5","NA","","5","","","NA","42.0","29.5"
"-112.117","50.367","RAINIER AGCM","3035355","AB","18.3","0","NA","33.9","0","5.2","0","","","NA","25.7","0","NA","","6","","","NA","28.3","36.1"
"-111.213","50.099","RALSTON AGCM","3035362","AB","19.2","0","NA","34.1","0","7.2","0","","","NA","20.2","6","NA","","5","","","NA","22.7","58.7"
"-112.683","49.483","RAYMOND AGDM","3035422","AB","17.4","0","NA","32.3","0","4.1","0","","","NA","8.5","22","NA","","2","","","NA","46.3","28.7"
"-111.701","50.265","ROLLING HILLS AGCM","3035530","AB","18.2","0","NA","33.6","0","5.5","0","","","NA","34.2","4","NA","","7","","","NA","29.5","34.9"
"-112.050","50.833","ROSEMARY AGDM","3035650","AB","17.6","0","NA","32.8","0","5.1","0","","","NA","48.4","2","NA","","7","","","NA","38.0","26.4"
"-110.917","49.917","SEVEN PERSONS AGDM","3035845","AB","18.6","0","NA","35.0","0","4.9","0","","","NA","26.5","3","NA","","6","","","NA","30.5","48.1"
"-110.215","50.732","SOCIAL PLAINS AGCM","3036040","AB","18.9","0","NA","36.1","0","7.9","0","","","NA","37.7","0","NA","","6","","","NA","23.2","51.5"
"-112.982","51.228","STANDARD AGCM","3036086","AB","17.0","0","NA","31.2","0","5.7","0","","","NA","93.6","2","NA","","8","","","NA","53.3","22.0"
"-113.883","50.183","STAVELY AAFC","3036099","AB","16.2","0","NA","29.7","0","6.2","0","","","NA","30.6","0","NA","","5","","","NA","79.8","22.9"
"-113.283","51.033","STRATHMORE AGDM","3036205","AB","16.9","0","NA","31.2","0","6.1","0","","","NA","30.5","12","NA","","6","","","NA","55.9","22.2"
"-112.124","49.792","TABER","3036360","AB","16.4","27","NA","26.5","26","8.5","25","0.0","26","NA","22.6","26","NA","","3","","","NA","6.4","0.0"
"-111.321","50.456","TIDE LAKE AGCM","3036485","AB","18.5","3","NA","34.2","3","5.5","3","","","NA","37.1","3","NA","","5","","","NA","30.5","43.1"
"-112.863","50.304","TRAVERS AGCM","3036500","AB","17.8","0","NA","34.1","0","6.9","0","","","NA","32.9","0","NA","","5","","","NA","39.4","34.4"
"-112.133","50.050","VAUXHALL CDA CS","3036682","AB","18.3","0","NA","33.7","0","5.6","0","","","NA","","","NA","","","","","NA","27.4","36.2"
"-112.117","49.500","WRENTHAM AGDM","3037675","AB","17.4","0","NA","33.0","0","4.4","0","","","NA","18.3","4","NA","","4","","","NA","48.8","30.7"
"-113.961","50.729","OKOTOKS","303M9JM","AB","17.7","0","0.7","34.5","0","6.0","0","0.0","0","NA","36.0","0","66.0","0.0","9","","","NA","42.5","32.2"
"-112.788","49.871","PICTURE BUTTE WEST","303N1G3","AB","18.0","0","NA","35.0","0","4.0","0","0.0","0","NA","13.4","0","NA","0.0","4","","","NA","37.0","35.5"
"-112.817","49.050","DEL BONITA AGDM","3042045","AB","15.6","0","NA","31.0","0","2.7","0","","","NA","7.0","0","NA","","1","","","NA","90.5","17.4"
"-110.678","49.364","MANYBERRIES AGCM","3044203","AB","18.1","0","NA","34.8","0","1.9","0","","","NA","43.7","0","NA","","5","","","NA","42.1","44.4"
"-111.652","49.137","MASINASIN AGDM","3044232","AB","18.1","0","NA","34.8","0","5.5","0","","","NA","22.4","0","NA","","6","","","NA","37.4","39.1"
"-112.050","49.133","MILK RIVER","3044533","AB","17.5","0","NA","33.9","0","2.6","0","","","NA","24.4","0","NA","","4","","","NA","45.3","30.1"
"-110.467","49.117","ONEFOUR CDA","3044923","AB","18.8","0","NA","35.1","0","4.4","0","","","NA","63.0","0","NA","","7","","","NA","31.1","54.7"
"-111.126","49.225","PAKOWKI LAKE AGCM","3045000","AB","18.1","0","NA","35.2","0","4.8","0","","","NA","7.1","9","NA","","3","","","NA","37.7","39.6"
"-111.025","49.029","PINHORN AGCM","3045100","AB","18.1","0","NA","33.6","0","7.1","0","","","NA","21.8","5","NA","","7","","","NA","38.9","43.5"
"-112.160","49.283","WARNER AGCM","3046951","AB","17.8","6","NA","33.3","6","4.2","6","","","NA","1.4","16","NA","","0","","","NA","33.5","29.5"
"-115.552","51.193","BANFF CS","3050519","AB","14.6","1","NA","31.4","1","0.6","1","","","NA","8.3","1","NA","","4","","","NA","111.6","8.7"
"-114.175","49.468","BEAVER MINES","3050602","AB","15.7","1","NA","31.1","1","3.1","1","","","NA","3.8","1","NA","","2","","","NA","84.4","15.6"
"-115.067","51.083","BOW VALLEY","3050778","AB","15.8","1","NA","33.5","1","1.2","1","","","NA","","","NA","","","","","NA","79.7","13.4"
"-114.482","49.628","CROWSNEST","3051R4R","AB","14.3","0","NA","30.8","0","-1.0","0","","","NA","5.6","1","NA","","2","","","NA","115.6","2.2"
"-118.030","52.926","JASPER WARDEN","3053536","AB","15.2","0","NA","33.4","0","1.9","0","","","NA","85.7","0","NA","","12","","","NA","101.2","13.5"
"-116.040","52.492","NORDEGG CS","3054843","AB","13.9","1","NA","31.0","1","0.3","1","","","NA","108.3","1","NA","","11","","","NA","131.9","9.1"
"-114.416","50.368","PEKISKO","3055119","AB","14.0","4","NA","28.6","4","0.8","4","","","NA","5.2","4","NA","","2","","","NA","108.5","1.5"
"-113.809","49.131","WATERTON PARK GATE","3056214","AB","16.3","0","NA","31.6","0","2.8","0","","","NA","6.0","0","NA","","2","","","NA","72.6","19.6"
"-115.787","54.144","WHITECOURT A","3057376","AB","15.6","3","NA","29.0","3","5.8","3","","","NA","","","NA","","","","","NA","71.0","5.1"
"-115.190","50.943","NAKISKA RIDGETOP","305MGFF","AB","9.0","0","NA","21.5","0","-0.1","0","","","NA","","","NA","","","","","NA","277.8","0.0"
"-113.382","54.635","ATHABASCA AGCM","3060330","AB","17.1","0","NA","29.4","0","8.2","0","","","NA","73.2","0","NA","","15","","","NA","41.8","15.0"
"-112.825","54.782","ATMORE AGDM","3060406","AB","16.3","0","NA","29.5","0","6.4","0","","","NA","57.4","2","NA","","10","","","NA","62.2","10.3"
"-114.448","54.095","BARRHEAD CS","3060535","AB","17.2","1","NA","30.0","1","7.1","1","","","NA","65.2","1","NA","","11","","","NA","41.8","16.4"
"-117.867","53.350","BRULE BLACK CAT","3060903","AB","15.3","1","1.0","31.5","1","3.5","0","0.0","0","NA","72.8","0","81.0","0.0","12","","","NA","94.3","12.2"
"-114.678","54.131","CAMPSIE AUTO","3061201","AB","16.7","2","NA","29.2","2","6.5","2","","","NA","76.0","2","NA","","13","","","NA","49.9","12.1"
"-115.894","53.623","CARROT CREEK","3061350","AB","15.7","0","NA","29.8","0","5.2","0","","","NA","80.6","12","NA","","11","","","NA","80.0","8.2"
"-113.950","54.317","DAPP AGDM","3061975","AB","15.0","26","NA","22.1","26","6.9","26","","","NA","11.5","26","NA","","2","","","NA","15.1","0.0"
"-116.465","53.579","EDSON","3062239","AB","14.9","3","NA","30.7","3","3.9","3","","","NA","127.9","4","NA","","13","","","NA","90.2","3.4"
"-116.453","53.580","EDSON CLIMATE","3062246","AB","15.6","1","NA","30.9","1","4.9","1","","","NA","129.4","1","NA","","14","","","NA","81.3","10.3"
"-114.983","53.600","ENTWISTLE","3062451","AB","17.0","11","0.5","30.5","11","6.0","11","0.0","11","NA","82.8","11","NA","0.0","12","","","NA","35.7","14.9"
"-115.062","53.614","EVANSBURG2 AGCM","3062476","AB","15.4","0","NA","29.3","0","4.6","0","","","NA","112.2","1","NA","","16","","","NA","87.9","7.0"
"-114.769","54.410","FORT ASSINIBOINE AGCM","3062660","AB","16.2","0","NA","28.8","0","5.9","0","","","NA","122.1","0","NA","","14","","","NA","65.7","10.6"
"-111.213","56.651","FORT MCMURRAY CS","3062696","AB","17.4","0","NA","33.4","0","6.8","0","","","NA","104.8","0","NA","","12","","","NA","39.8","20.7"
"-111.223","56.653","FORT MCMURRAY A","3062697","AB","17.6","0","NA","33.5","0","7.2","0","","","NA","111.5","0","NA","","14","","","NA","37.0","23.4"
"-118.447","53.795","HENDRICKSON CREEK","3063135","AB","11.3","0","NA","29.6","0","-1.6","0","","","NA","106.4","0","NA","","12","","","NA","206.8","0.0"
"-116.479","55.396","HIGH PRAIRIE AGDM","3063165","AB","16.4","0","NA","30.5","0","8.2","0","","","NA","93.6","0","NA","","14","","","NA","56.0","6.7"
"-113.543","54.821","ISLAND LAKE SOUTH","3063600","AB","16.7","0","NA","29.2","0","7.5","0","","","NA","90.5","0","NA","","14","","","NA","52.9","11.5"
"-112.981","54.563","KINIKINIK","3063640","AB","17.3","0","NA","29.1","0","9.2","0","","","NA","71.2","3","NA","","10","","","NA","38.3","16.1"
"-112.024","54.769","LAC LA BICHE CLIMATE","3063686","AB","17.4","1","NA","29.3","1","8.6","1","","","NA","82.2","1","NA","","13","","","NA","35.6","16.2"
"-111.559","57.041","MILDRED LAKE","3064528","AB","18.0","0","NA","31.5","0","9.0","0","","","NA","154.9","0","NA","","18","","","NA","30.3","31.6"
"-113.321","54.964","PLEASANT VIEW","3065200","AB","16.6","0","NA","28.9","0","8.1","0","","","NA","71.0","0","NA","","11","","","NA","54.2","12.2"
"-111.700","54.500","RICH LAKE AGDM","3065475","AB","15.7","0","NA","29.3","0","6.8","0","","","NA","106.0","1","NA","","15","","","NA","77.6","7.6"
"-111.835","53.851","ISPAS","3065712","AB","16.0","23","NA","23.4","23","8.5","23","","","NA","26.8","23","NA","","3","","","NA","16.4","0.0"
"-114.777","55.293","SLAVE LAKE","3065995","AB","16.6","1","NA","30.6","1","8.2","1","","","NA","64.4","1","NA","","13","","","NA","49.2","8.0"
"-114.777","55.293","SLAVE LAKE RCS","3065997","AB","16.4","0","NA","30.5","0","7.7","0","","","NA","86.2","0","NA","","10","","","NA","55.2","6.1"
"-113.520","54.300","TAWATINAW AGCM","3066367","AB","17.1","0","NA","29.3","0","7.8","0","","","NA","86.3","0","NA","","17","","","NA","44.3","17.8"
"-118.348","53.386","WILLOW CREEK 1","306GE70","AB","12.0","13","NA","30.7","13","-1.6","13","","","NA","64.9","13","NA","","3","","","NA","109.2","1.5"
"-117.236","55.577","BALLATER AGCM","3070495","AB","16.5","1","NA","30.9","1","6.8","1","","","NA","55.5","0","NA","","13","","","NA","53.1","8.6"
"-119.396","55.197","BEAVERLODGE RCS","3070600","AB","15.6","1","NA","30.3","1","6.9","1","","","NA","72.3","1","NA","","10","","","NA","81.0","8.6"
"-117.886","56.118","BROWNVALE AGCM","3070800","AB","16.1","0","NA","30.2","0","5.4","0","","","NA","83.2","17","NA","","9","","","NA","64.3","3.9"
"-117.933","56.529","CLEAR HILLS AGCM","3071661","AB","15.6","0","NA","28.5","0","6.1","0","","","NA","64.8","17","NA","","6","","","NA","77.1","3.7"
"-117.543","56.715","DEADWOOD AGCM","3071957","AB","16.7","0","NA","28.9","0","7.8","0","","","NA","116.9","1","NA","","13","","","NA","46.0","6.5"
"-117.887","55.808","EAGLESHAM AGCM","3072151","AB","16.2","0","NA","31.6","0","6.9","0","","","NA","78.7","0","NA","","15","","","NA","62.2","6.4"
"-110.439","58.981","EGG ISLAND","3072246","AB","16.0","23","NA","20.7","23","11.3","23","","","NA","","","NA","","","","","NA","15.7","0.0"
"-118.439","56.081","FAIRVIEW AGDM","3072525","AB","15.6","0","NA","29.2","0","7.0","0","","","NA","89.9","2","NA","","14","","","NA","78.0","4.3"
"-111.117","58.767","FORT CHIPEWYAN","3072655","AB","17.0","0","NA","29.1","0","6.4","0","","","NA","70.6","0","NA","","10","","","NA","41.8","11.9"
"-111.117","58.767","FORT CHIPEWYAN RCS","3072659","AB","17.1","0","NA","29.4","0","6.5","0","","","NA","72.3","0","NA","","10","","","NA","39.9","13.2"
"-116.040","58.382","FORT VERMILION","3072723","AB","17.1","0","NA","29.9","0","8.2","0","","","NA","92.7","0","NA","","11","","","NA","37.4","10.4"
"-118.885","55.180","GRANDE PRAIRIE A","3072921","AB","16.6","1","NA","31.0","1","8.4","1","0.0","0","NA","61.8","0","NA","","10","","","NA","54.0","11.0"
"-117.298","57.265","HAWK HILLS AGCM","3073071","AB","16.9","0","NA","29.0","0","8.6","0","","","NA","121.0","0","NA","","15","","","NA","44.3","8.9"
"-117.165","58.622","HIGH LEVEL A","3073140","AB","16.9","0","NA","30.7","0","6.3","0","","","NA","109.5","1","NA","","13","","","NA","42.2","7.1"
"-117.165","58.621","HIGH LEVEL A","3073146","AB","16.9","0","0.4","30.5","0","6.0","0","0.0","0","NA","153.7","0","232.0","0.0","16","","","NA","43.7","8.8"
"-117.120","55.913","JEAN COTE AGCM","3073535","AB","16.0","0","NA","29.8","0","7.9","0","","","NA","101.7","0","NA","","12","","","NA","67.8","6.0"
"-117.677","57.788","KEG RIVER AGCM","3073644","AB","16.7","0","NA","30.9","0","6.6","0","","","NA","158.4","5","NA","","13","","","NA","49.0","9.6"
"-116.343","58.172","LA CRETE AGCM","3073730","AB","17.1","0","NA","30.4","0","8.1","0","","","NA","87.0","0","NA","","13","","","NA","38.3","11.7"
"-119.255","55.422","LA GLACE AGCM","3073740","AB","15.2","0","NA","29.4","0","4.6","0","","","NA","84.4","0","NA","","10","","","NA","89.0","2.7"
"-117.451","56.974","MANNING AGDM","3074190","AB","16.9","0","NA","30.3","0","7.8","0","","","NA","","","NA","","","","","NA","42.8","8.8"
"-119.745","56.314","CLEARDALE AGDM","3074935","AB","15.8","0","NA","28.5","0","5.6","0","","","NA","89.7","4","NA","","10","","","NA","72.9","3.9"
"-117.448","56.227","PEACE RIVER A","3075041","AB","16.3","0","NA","29.7","0","6.7","0","0.0","0","NA","86.2","0","NA","","11","","","NA","58.0","4.2"
"-118.293","55.621","PEORIA AGDM","3075160","AB","16.0","0","NA","31.4","0","6.2","0","","","NA","102.4","0","NA","","11","","","NA","66.6","5.1"
"-115.278","56.552","RED EARTH","3075488","AB","16.5","0","NA","30.7","0","6.8","0","","","NA","118.7","0","NA","","19","","","NA","53.7","8.1"
"-116.481","58.452","ROCKY LANE AGCM","3075550","AB","16.9","0","NA","30.7","0","6.3","0","","","NA","100.5","0","NA","","12","","","NA","41.9","8.3"
"-118.668","55.777","RYCROFT AGCM","3075601","AB","16.7","0","NA","32.1","0","7.7","0","","","NA","108.0","0","NA","","10","","","NA","50.4","9.7"
"-119.345","56.076","SAVANNA AGCM","3075770","AB","15.7","2","NA","29.1","0","7.6","2","","","NA","129.0","1","NA","","14","","","NA","70.4","4.2"
"-117.741","54.425","SIMONETTE","3075937","AB","15.8","4","1.0","32.0","2","6.0","2","0.0","2","NA","127.6","2","NA","0.0","17","","","NA","67.8","9.0"
"-111.997","58.853","SWEETGRASS LANDING","3076330","AB","","","NA","","","","","","","NA","19.4","23","NA","","3","","","NA","",""
"-118.408","55.352","TEEPEE CREEK AGCM","3076366","AB","16.4","0","NA","31.3","0","7.5","0","","","NA","74.2","0","NA","","9","","","NA","59.1","10.3"
"-116.848","58.021","TOMPKINS LANDING AGCM","3076530","AB","17.1","0","NA","30.0","0","7.7","0","","","NA","82.4","0","NA","","14","","","NA","40.3","13.7"
"-117.199","55.098","VALLEYVIEW AGDM","3076680","AB","16.5","0","NA","31.7","0","5.9","0","","","NA","98.2","0","NA","","13","","","NA","59.7","13.1"
"-113.866","58.711","GARDEN RIVER","307KPFP","AB","17.2","0","NA","31.8","0","6.0","0","","","NA","95.2","0","NA","","9","","","NA","39.7","14.6"
"-110.283","54.417","COLD LAKE A","3081680","AB","18.2","0","0.8","31.0","0","9.5","0","0.0","0","NA","59.0","0","75.0","","12","","","NA","20.6","26.5"
"-110.868","54.367","DUPRE AGCM","3081690","AB","17.1","0","NA","30.8","0","6.9","0","","","NA","58.6","0","NA","","9","","","NA","42.3","13.2"
